{
"type": "FeatureCollection",
"crs": { "type": "name", "properties": { "name": "urn:ogc:def:crs:OGC:1.3:CRS84" } },
"features": [
{ "type": "Feature", "properties": { "name": "新湾路" }, "geometry": { "type": "Point", "coordinates": [ 120.537694427179645, 30.297211411458129 ] } },
{ "type": "Feature", "properties": { "name": "冯娄村" }, "geometry": { "type": "Point", "coordinates": [ 120.517073751530191, 30.296658213569366 ] } },
{ "type": "Feature", "properties": { "name": "仓北村" }, "geometry": { "type": "Point", "coordinates": [ 120.503366654430991, 30.296309437801924 ] } },
{ "type": "Feature", "properties": { "name": "青六中路" }, "geometry": { "type": "Point", "coordinates": [ 120.486841736696718, 30.300154627195468 ] } },
{ "type": "Feature", "properties": { "name": "青西三路" }, "geometry": { "type": "Point", "coordinates": [ 120.473308787523493, 30.300638433820339 ] } },
{ "type": "Feature", "properties": { "name": "河庄路" }, "geometry": { "type": "Point", "coordinates": [ 120.453458944034494, 30.301061379415351 ] } },
{ "type": "Feature", "properties": { "name": "桥头堡" }, "geometry": { "type": "Point", "coordinates": [ 120.427859712626329, 30.305515720175244 ] } },
{ "type": "Feature", "properties": { "name": "工商大学云滨" }, "geometry": { "type": "Point", "coordinates": [ 120.388409711788114, 30.313242486134101 ] } },
{ "type": "Feature", "properties": { "name": "文海南路" }, "geometry": { "type": "Point", "coordinates": [ 120.370459841684408, 30.31326000003849 ] } },
{ "type": "Feature", "properties": { "name": "观音塘" }, "geometry": { "type": "Point", "coordinates": [ 120.197051362581419, 30.249493874053105 ] } },
{ "type": "Feature", "properties": { "name": "新业路" }, "geometry": { "type": "Point", "coordinates": [ 120.204335273850006, 30.251545384697714 ] } },
{ "type": "Feature", "properties": { "name": "钱江路" }, "geometry": { "type": "Point", "coordinates": [ 120.208843207808414, 30.257132865041566 ] } },
{ "type": "Feature", "properties": { "name": "江河汇" }, "geometry": { "type": "Point", "coordinates": [ 120.216884485222963, 30.263813431731982 ] } },
{ "type": "Feature", "properties": { "name": "三堡" }, "geometry": { "type": "Point", "coordinates": [ 120.223455996985493, 30.269266893704952 ] } },
{ "type": "Feature", "properties": { "name": "御道" }, "geometry": { "type": "Point", "coordinates": [ 120.231722973024816, 30.276359604432116 ] } },
{ "type": "Feature", "properties": { "name": "五堡" }, "geometry": { "type": "Point", "coordinates": [ 120.237631606993347, 30.283098263441939 ] } },
{ "type": "Feature", "properties": { "name": "六堡" }, "geometry": { "type": "Point", "coordinates": [ 120.246646134942651, 30.288752705739725 ] } },
{ "type": "Feature", "properties": { "name": "红普南路" }, "geometry": { "type": "Point", "coordinates": [ 120.258715618376812, 30.295403556113833 ] } },
{ "type": "Feature", "properties": { "name": "九睦路" }, "geometry": { "type": "Point", "coordinates": [ 120.266722410247439, 30.308155844699485 ] } },
{ "type": "Feature", "properties": { "name": "客运中心" }, "geometry": { "type": "Point", "coordinates": [ 120.274361355168921, 30.313578110962521 ] } },
{ "type": "Feature", "properties": { "name": "乔司南" }, "geometry": { "type": "Point", "coordinates": [ 120.286205684526067, 30.329735414227606 ] } },
{ "type": "Feature", "properties": { "name": "乔司" }, "geometry": { "type": "Point", "coordinates": [ 120.280778504779263, 30.349285732325651 ] } },
{ "type": "Feature", "properties": { "name": "翁梅" }, "geometry": { "type": "Point", "coordinates": [ 120.290513411992805, 30.367236365641833 ] } },
{ "type": "Feature", "properties": { "name": "临平南高铁站" }, "geometry": { "type": "Point", "coordinates": [ 120.293360930444493, 30.384453907727636 ] } },
{ "type": "Feature", "properties": { "name": "南苑" }, "geometry": { "type": "Point", "coordinates": [ 120.297892558869492, 30.397305097788365 ] } },
{ "type": "Feature", "properties": { "name": "临平" }, "geometry": { "type": "Point", "coordinates": [ 120.29956149673346, 30.40917487156802 ] } },
{ "type": "Feature", "properties": { "name": "邱山大街" }, "geometry": { "type": "Point", "coordinates": [ 120.290691607045588, 30.423161100890745 ] } },
{ "type": "Feature", "properties": { "name": "荷禹路" }, "geometry": { "type": "Point", "coordinates": [ 120.280079812780258, 30.436467627346335 ] } },
{ "type": "Feature", "properties": { "name": "五洲路" }, "geometry": { "type": "Point", "coordinates": [ 120.274429318319761, 30.447153502917985 ] } },
{ "type": "Feature", "properties": { "name": "龙安" }, "geometry": { "type": "Point", "coordinates": [ 120.26869759040774, 30.458369182163814 ] } },
{ "type": "Feature", "properties": { "name": "桂花西路" }, "geometry": { "type": "Point", "coordinates": [ 119.929732168904437, 30.050054164626271 ] } },
{ "type": "Feature", "properties": { "name": "公望街" }, "geometry": { "type": "Point", "coordinates": [ 119.928853351011611, 30.068122272691731 ] } },
{ "type": "Feature", "properties": { "name": "阳陂湖" }, "geometry": { "type": "Point", "coordinates": [ 119.927622848404638, 30.084793815048272 ] } },
{ "type": "Feature", "properties": { "name": "高桥" }, "geometry": { "type": "Point", "coordinates": [ 119.9268813012865, 30.09738066396238 ] } },
{ "type": "Feature", "properties": { "name": "富阳客运中心" }, "geometry": { "type": "Point", "coordinates": [ 119.932090979583862, 30.113849953205015 ] } },
{ "type": "Feature", "properties": { "name": "受降" }, "geometry": { "type": "Point", "coordinates": [ 119.95616891414042, 30.124997391780603 ] } },
{ "type": "Feature", "properties": { "name": "虎啸杏" }, "geometry": { "type": "Point", "coordinates": [ 119.96667952223153, 30.133548181767758 ] } },
{ "type": "Feature", "properties": { "name": "银湖" }, "geometry": { "type": "Point", "coordinates": [ 119.983964294669022, 30.142128413918169 ] } },
{ "type": "Feature", "properties": { "name": "野生动物园东" }, "geometry": { "type": "Point", "coordinates": [ 119.996964072851128, 30.149273856367625 ] } },
{ "type": "Feature", "properties": { "name": "中村" }, "geometry": { "type": "Point", "coordinates": [ 120.033967675100115, 30.149628091218425 ] } },
{ "type": "Feature", "properties": { "name": "音乐学院" }, "geometry": { "type": "Point", "coordinates": [ 120.05185245347235, 30.150113741924908 ] } },
{ "type": "Feature", "properties": { "name": "美院象山" }, "geometry": { "type": "Point", "coordinates": [ 120.076520062859259, 30.153455579196997 ] } },
{ "type": "Feature", "properties": { "name": "枫桦西路" }, "geometry": { "type": "Point", "coordinates": [ 120.094164792788035, 30.157538071171874 ] } },
{ "type": "Feature", "properties": { "name": "之浦路" }, "geometry": { "type": "Point", "coordinates": [ 120.102917351380512, 30.160244894840815 ] } },
{ "type": "Feature", "properties": { "name": "西浦路" }, "geometry": { "type": "Point", "coordinates": [ 120.132896025489217, 30.171016132859254 ] } },
{ "type": "Feature", "properties": { "name": "中医药大学" }, "geometry": { "type": "Point", "coordinates": [ 120.141721446161839, 30.178122397381944 ] } },
{ "type": "Feature", "properties": { "name": "伟业路" }, "geometry": { "type": "Point", "coordinates": [ 120.154380723965687, 30.184706061597097 ] } },
{ "type": "Feature", "properties": { "name": "诚业路" }, "geometry": { "type": "Point", "coordinates": [ 120.165383970628483, 30.189055292520955 ] } },
{ "type": "Feature", "properties": { "name": "建业路" }, "geometry": { "type": "Point", "coordinates": [ 120.174125698867684, 30.192852519331385 ] } },
{ "type": "Feature", "properties": { "name": "长河" }, "geometry": { "type": "Point", "coordinates": [ 120.189366941439545, 30.199653520282023 ] } },
{ "type": "Feature", "properties": { "name": "江汉路" }, "geometry": { "type": "Point", "coordinates": [ 120.200397497389588, 30.205258784433095 ] } },
{ "type": "Feature", "properties": { "name": "江陵路" }, "geometry": { "type": "Point", "coordinates": [ 120.212074991959767, 30.211539903245384 ] } },
{ "type": "Feature", "properties": { "name": "星民" }, "geometry": { "type": "Point", "coordinates": [ 120.219355130507509, 30.215663308516426 ] } },
{ "type": "Feature", "properties": { "name": "奥体中心" }, "geometry": { "type": "Point", "coordinates": [ 120.22848347926346, 30.226522757412347 ] } },
{ "type": "Feature", "properties": { "name": "博览中心" }, "geometry": { "type": "Point", "coordinates": [ 120.232019768427378, 30.234901167660517 ] } },
{ "type": "Feature", "properties": { "name": "钱江世纪城" }, "geometry": { "type": "Point", "coordinates": [ 120.238444821379531, 30.242275041196272 ] } },
{ "type": "Feature", "properties": { "name": "丰北" }, "geometry": { "type": "Point", "coordinates": [ 120.245761481252003, 30.252504101381231 ] } },
{ "type": "Feature", "properties": { "name": "亚运村" }, "geometry": { "type": "Point", "coordinates": [ 120.242921617254623, 30.260142381664544 ] } },
{ "type": "Feature", "properties": { "name": "昙花庵路" }, "geometry": { "type": "Point", "coordinates": [ 120.218333030896531, 30.278836468452585 ] } },
{ "type": "Feature", "properties": { "name": "元宝塘" }, "geometry": { "type": "Point", "coordinates": [ 120.216054996728033, 30.286443414465545 ] } },
{ "type": "Feature", "properties": { "name": "火车东站(东广场)" }, "geometry": { "type": "Point", "coordinates": [ 120.211387539597453, 30.29648614706413 ] } },
{ "type": "Feature", "properties": { "name": "枸桔弄" }, "geometry": { "type": "Point", "coordinates": [ 120.20199733613164, 30.30365500765031 ] } },
{ "type": "Feature", "properties": { "name": "苕溪" }, "geometry": { "type": "Point", "coordinates": [ 119.954628228064394, 30.324960603850599 ] } },
{ "type": "Feature", "properties": { "name": "火车西站" }, "geometry": { "type": "Point", "coordinates": [ 119.981872369812692, 30.300371565765129 ] } },
{ "type": "Feature", "properties": { "name": "创景路" }, "geometry": { "type": "Point", "coordinates": [ 119.993354467451553, 30.28057406213345 ] } },
{ "type": "Feature", "properties": { "name": "海创园" }, "geometry": { "type": "Point", "coordinates": [ 120.015904873936364, 30.282465426357305 ] } },
{ "type": "Feature", "properties": { "name": "荆长路" }, "geometry": { "type": "Point", "coordinates": [ 120.038596364238785, 30.288868490386616 ] } },
{ "type": "Feature", "properties": { "name": "西溪湿地北" }, "geometry": { "type": "Point", "coordinates": [ 120.065106199736491, 30.284134126705521 ] } },
{ "type": "Feature", "properties": { "name": "五联" }, "geometry": { "type": "Point", "coordinates": [ 120.094296669398162, 30.278072785660871 ] } },
{ "type": "Feature", "properties": { "name": "文三路" }, "geometry": { "type": "Point", "coordinates": [ 120.125203649383451, 30.279152008261725 ] } },
{ "type": "Feature", "properties": { "name": "沈塘桥" }, "geometry": { "type": "Point", "coordinates": [ 120.144790302621885, 30.280310685455692 ] } },
{ "type": "Feature", "properties": { "name": "西湖文化广场" }, "geometry": { "type": "Point", "coordinates": [ 120.161755263894634, 30.28352581809677 ] } },
{ "type": "Feature", "properties": { "name": "驿城路" }, "geometry": { "type": "Point", "coordinates": [ 120.194608742098211, 30.300787110152381 ] } },
{ "type": "Feature", "properties": { "name": "御道" }, "geometry": { "type": "Point", "coordinates": [ 120.231625969537575, 30.274809704375969 ] } },
{ "type": "Feature", "properties": { "name": "平澜路" }, "geometry": { "type": "Point", "coordinates": [ 120.253867069549003, 30.262504836496284 ] } },
{ "type": "Feature", "properties": { "name": "耕文路" }, "geometry": { "type": "Point", "coordinates": [ 120.297037363810034, 30.242533989313348 ] } },
{ "type": "Feature", "properties": { "name": "知行路" }, "geometry": { "type": "Point", "coordinates": [ 120.331207688719829, 30.230712791095762 ] } },
{ "type": "Feature", "properties": { "name": "萧山国际机场" }, "geometry": { "type": "Point", "coordinates": [ 120.428566772937259, 30.237858029248823 ] } },
{ "type": "Feature", "properties": { "name": "永盛路" }, "geometry": { "type": "Point", "coordinates": [ 120.468584761893425, 30.238853151491973 ] } },
{ "type": "Feature", "properties": { "name": "星桥" }, "geometry": { "type": "Point", "coordinates": [ 120.259102763536404, 30.391673857366392 ] } },
{ "type": "Feature", "properties": { "name": "黄鹤山" }, "geometry": { "type": "Point", "coordinates": [ 120.241950649894378, 30.383389908350779 ] } },
{ "type": "Feature", "properties": { "name": "华鹤街" }, "geometry": { "type": "Point", "coordinates": [ 120.233262064041597, 30.372834344156093 ] } },
{ "type": "Feature", "properties": { "name": "丁桥" }, "geometry": { "type": "Point", "coordinates": [ 120.23010701702259, 30.358224226129892 ] } },
{ "type": "Feature", "properties": { "name": "桃花湖公园" }, "geometry": { "type": "Point", "coordinates": [ 120.216793893126649, 30.353896364313769 ] } },
{ "type": "Feature", "properties": { "name": "同协路" }, "geometry": { "type": "Point", "coordinates": [ 120.207332402341876, 30.34680449753516 ] } },
{ "type": "Feature", "properties": { "name": "华丰路" }, "geometry": { "type": "Point", "coordinates": [ 120.199825745107603, 30.342458686776929 ] } },
{ "type": "Feature", "properties": { "name": "汽轮广场" }, "geometry": { "type": "Point", "coordinates": [ 120.183715668360549, 30.337281929979717 ] } },
{ "type": "Feature", "properties": { "name": "新天地街" }, "geometry": { "type": "Point", "coordinates": [ 120.174958298938719, 30.323536882759893 ] } },
{ "type": "Feature", "properties": { "name": "善贤" }, "geometry": { "type": "Point", "coordinates": [ 120.155969076723679, 30.319811908686312 ] } },
{ "type": "Feature", "properties": { "name": "大关" }, "geometry": { "type": "Point", "coordinates": [ 120.144428790059379, 30.310129780392899 ] } },
{ "type": "Feature", "properties": { "name": "香积寺" }, "geometry": { "type": "Point", "coordinates": [ 120.144080484758817, 30.302289129934174 ] } },
{ "type": "Feature", "properties": { "name": "潮王路" }, "geometry": { "type": "Point", "coordinates": [ 120.154109902214756, 30.292647755045003 ] } },
{ "type": "Feature", "properties": { "name": "西湖文化广场" }, "geometry": { "type": "Point", "coordinates": [ 120.160975073183565, 30.281932522565963 ] } },
{ "type": "Feature", "properties": { "name": "武林广场" }, "geometry": { "type": "Point", "coordinates": [ 120.159656757073932, 30.274713774951501 ] } },
{ "type": "Feature", "properties": { "name": "武林门" }, "geometry": { "type": "Point", "coordinates": [ 120.149313734358216, 30.272332241654979 ] } },
{ "type": "Feature", "properties": { "name": "黄龙洞" }, "geometry": { "type": "Point", "coordinates": [ 120.135715025601144, 30.267692394883408 ] } },
{ "type": "Feature", "properties": { "name": "黄龙体育中心" }, "geometry": { "type": "Point", "coordinates": [ 120.125139237989856, 30.270480757826636 ] } },
{ "type": "Feature", "properties": { "name": "古荡" }, "geometry": { "type": "Point", "coordinates": [ 120.117681266494557, 30.273130378617886 ] } },
{ "type": "Feature", "properties": { "name": "古荡新村" }, "geometry": { "type": "Point", "coordinates": [ 120.106433825386759, 30.272062930971831 ] } },
{ "type": "Feature", "properties": { "name": "古墩路" }, "geometry": { "type": "Point", "coordinates": [ 120.097168382961868, 30.267634050953042 ] } },
{ "type": "Feature", "properties": { "name": "东岳" }, "geometry": { "type": "Point", "coordinates": [ 120.084711394178512, 30.264443733170673 ] } },
{ "type": "Feature", "properties": { "name": "花坞" }, "geometry": { "type": "Point", "coordinates": [ 120.071907258560671, 30.26303153347585 ] } },
{ "type": "Feature", "properties": { "name": "西溪湿地南" }, "geometry": { "type": "Point", "coordinates": [ 120.056971873350747, 30.256159424053802 ] } },
{ "type": "Feature", "properties": { "name": "洪园" }, "geometry": { "type": "Point", "coordinates": [ 120.045579329179176, 30.250612807536303 ] } },
{ "type": "Feature", "properties": { "name": "联胜路" }, "geometry": { "type": "Point", "coordinates": [ 120.027737053719434, 30.24642607532709 ] } },
{ "type": "Feature", "properties": { "name": "高教路" }, "geometry": { "type": "Point", "coordinates": [ 120.014675990326936, 30.245272238847306 ] } },
{ "type": "Feature", "properties": { "name": "全丰" }, "geometry": { "type": "Point", "coordinates": [ 120.003420929245721, 30.249297260876052 ] } },
{ "type": "Feature", "properties": { "name": "创明路" }, "geometry": { "type": "Point", "coordinates": [ 119.997596872970078, 30.263108779518159 ] } },
{ "type": "Feature", "properties": { "name": "绿汀路" }, "geometry": { "type": "Point", "coordinates": [ 119.987400424892769, 30.262621798444378 ] } },
{ "type": "Feature", "properties": { "name": "文一西路" }, "geometry": { "type": "Point", "coordinates": [ 119.97601579761168, 30.277504156643509 ] } },
{ "type": "Feature", "properties": { "name": "龙舟北路" }, "geometry": { "type": "Point", "coordinates": [ 119.978531546149057, 30.290459515343688 ] } },
{ "type": "Feature", "properties": { "name": "汤家村" }, "geometry": { "type": "Point", "coordinates": [ 119.977289139615138, 30.307992147330008 ] } },
{ "type": "Feature", "properties": { "name": "吴山前村" }, "geometry": { "type": "Point", "coordinates": [ 119.975541907068276, 30.313870484658054 ] } },
{ "type": "Feature", "properties": { "name": "姑娘桥" }, "geometry": { "type": "Point", "coordinates": [ 120.325787375485817, 30.178360855706831 ] } },
{ "type": "Feature", "properties": { "name": "双桥" }, "geometry": { "type": "Point", "coordinates": [ 120.304276576447293, 30.175539256626507 ] } },
{ "type": "Feature", "properties": { "name": "火车南站" }, "geometry": { "type": "Point", "coordinates": [ 120.292851721543059, 30.175089385454569 ] } },
{ "type": "Feature", "properties": { "name": "通惠中路" }, "geometry": { "type": "Point", "coordinates": [ 120.280714207469032, 30.182921177953776 ] } },
{ "type": "Feature", "properties": { "name": "育才北路" }, "geometry": { "type": "Point", "coordinates": [ 120.271745188914849, 30.183239103237408 ] } },
{ "type": "Feature", "properties": { "name": "人民广场" }, "geometry": { "type": "Point", "coordinates": [ 120.262341038647847, 30.183539663430157 ] } },
{ "type": "Feature", "properties": { "name": "金鸡路" }, "geometry": { "type": "Point", "coordinates": [ 120.248936145251164, 30.184155917966581 ] } },
{ "type": "Feature", "properties": { "name": "博奥路" }, "geometry": { "type": "Point", "coordinates": [ 120.239690796953198, 30.184796593572763 ] } },
{ "type": "Feature", "properties": { "name": "滨康路" }, "geometry": { "type": "Point", "coordinates": [ 120.226547924768212, 30.18508666153441 ] } },
{ "type": "Feature", "properties": { "name": "江晖路" }, "geometry": { "type": "Point", "coordinates": [ 120.207891077556852, 30.184013111793472 ] } },
{ "type": "Feature", "properties": { "name": "聚才路" }, "geometry": { "type": "Point", "coordinates": [ 120.194243347695163, 30.184840244983658 ] } },
{ "type": "Feature", "properties": { "name": "南星桥" }, "geometry": { "type": "Point", "coordinates": [ 120.172760424858652, 30.219669567890133 ] } },
{ "type": "Feature", "properties": { "name": "候潮门" }, "geometry": { "type": "Point", "coordinates": [ 120.168516051629481, 30.228425062904883 ] } },
{ "type": "Feature", "properties": { "name": "江城路" }, "geometry": { "type": "Point", "coordinates": [ 120.173582096419935, 30.240935697848439 ] } },
{ "type": "Feature", "properties": { "name": "城站" }, "geometry": { "type": "Point", "coordinates": [ 120.176152182176352, 30.247096013455742 ] } },
{ "type": "Feature", "properties": { "name": "万安桥" }, "geometry": { "type": "Point", "coordinates": [ 120.175799462780134, 30.25527871302652 ] } },
{ "type": "Feature", "properties": { "name": "建国北路" }, "geometry": { "type": "Point", "coordinates": [ 120.176143508859056, 30.266929350271322 ] } },
{ "type": "Feature", "properties": { "name": "宝善桥" }, "geometry": { "type": "Point", "coordinates": [ 120.175247262184627, 30.274174020737309 ] } },
{ "type": "Feature", "properties": { "name": "打铁关" }, "geometry": { "type": "Point", "coordinates": [ 120.172107818820677, 30.287792808770551 ] } },
{ "type": "Feature", "properties": { "name": "杭氧" }, "geometry": { "type": "Point", "coordinates": [ 120.174287447712558, 30.297909777590124 ] } },
{ "type": "Feature", "properties": { "name": "东新园" }, "geometry": { "type": "Point", "coordinates": [ 120.171213246882957, 30.310688532423477 ] } },
{ "type": "Feature", "properties": { "name": "西文街" }, "geometry": { "type": "Point", "coordinates": [ 120.165279876216104, 30.318381417707013 ] } },
{ "type": "Feature", "properties": { "name": "善贤" }, "geometry": { "type": "Point", "coordinates": [ 120.154917066250761, 30.318865110075713 ] } },
{ "type": "Feature", "properties": { "name": "拱宸桥东" }, "geometry": { "type": "Point", "coordinates": [ 120.143258778799108, 30.31937266586808 ] } },
{ "type": "Feature", "properties": { "name": "大运河" }, "geometry": { "type": "Point", "coordinates": [ 120.12658018848829, 30.321565842874065 ] } },
{ "type": "Feature", "properties": { "name": "和睦" }, "geometry": { "type": "Point", "coordinates": [ 120.114582153847792, 30.310819476258647 ] } },
{ "type": "Feature", "properties": { "name": "萍水街" }, "geometry": { "type": "Point", "coordinates": [ 120.107949331779366, 30.305077313893801 ] } },
{ "type": "Feature", "properties": { "name": "三坝" }, "geometry": { "type": "Point", "coordinates": [ 120.093086537415047, 30.30228718633251 ] } },
{ "type": "Feature", "properties": { "name": "浙大紫金港" }, "geometry": { "type": "Point", "coordinates": [ 120.071890411146597, 30.296445233942052 ] } },
{ "type": "Feature", "properties": { "name": "蒋村" }, "geometry": { "type": "Point", "coordinates": [ 120.062537728054053, 30.297129127391727 ] } },
{ "type": "Feature", "properties": { "name": "五常" }, "geometry": { "type": "Point", "coordinates": [ 120.040100940293485, 30.298609004824502 ] } },
{ "type": "Feature", "properties": { "name": "永福" }, "geometry": { "type": "Point", "coordinates": [ 120.022304932687447, 30.293952239788482 ] } },
{ "type": "Feature", "properties": { "name": "杭师大仓前" }, "geometry": { "type": "Point", "coordinates": [ 120.012481499358046, 30.290995449549055 ] } },
{ "type": "Feature", "properties": { "name": "良睦路" }, "geometry": { "type": "Point", "coordinates": [ 120.002653637778394, 30.288115029396963 ] } },
{ "type": "Feature", "properties": { "name": "葛巷" }, "geometry": { "type": "Point", "coordinates": [ 119.994140071258357, 30.272814422907839 ] } },
{ "type": "Feature", "properties": { "name": "金星" }, "geometry": { "type": "Point", "coordinates": [ 119.961934611364001, 30.267594834036998 ] } },
{ "type": "Feature", "properties": { "name": "黄龙体育中心" }, "geometry": { "type": "Point", "coordinates": [ 120.124078892807717, 30.270274511370605 ] } },
{ "type": "Feature", "properties": { "name": "学院路" }, "geometry": { "type": "Point", "coordinates": [ 120.124815280854492, 30.285033947591337 ] } },
{ "type": "Feature", "properties": { "name": "翠柏路" }, "geometry": { "type": "Point", "coordinates": [ 120.124128118570084, 30.292526338664668 ] } },
{ "type": "Feature", "properties": { "name": "北大桥" }, "geometry": { "type": "Point", "coordinates": [ 120.125087145575037, 30.305641994505905 ] } },
{ "type": "Feature", "properties": { "name": "和睦" }, "geometry": { "type": "Point", "coordinates": [ 120.114384623893358, 30.312775066426923 ] } },
{ "type": "Feature", "properties": { "name": "花园岗" }, "geometry": { "type": "Point", "coordinates": [ 120.10814453975307, 30.317978841710865 ] } },
{ "type": "Feature", "properties": { "name": "渡驾桥" }, "geometry": { "type": "Point", "coordinates": [ 120.11057169274649, 30.32722721931443 ] } },
{ "type": "Feature", "properties": { "name": "祥园路" }, "geometry": { "type": "Point", "coordinates": [ 120.111657534549749, 30.339030344506504 ] } },
{ "type": "Feature", "properties": { "name": "杭行路" }, "geometry": { "type": "Point", "coordinates": [ 120.109657746077218, 30.35580035667606 ] } },
{ "type": "Feature", "properties": { "name": "金德路" }, "geometry": { "type": "Point", "coordinates": [ 120.109460499609256, 30.366649431976306 ] } },
{ "type": "Feature", "properties": { "name": "逸盛路" }, "geometry": { "type": "Point", "coordinates": [ 120.108758129919096, 30.381153413290601 ] } },
{ "type": "Feature", "properties": { "name": "浦沿" }, "geometry": { "type": "Point", "coordinates": [ 120.149262912303314, 30.160990773725342 ] } },
{ "type": "Feature", "properties": { "name": "杨家墩" }, "geometry": { "type": "Point", "coordinates": [ 120.144156788802007, 30.17014471104002 ] } },
{ "type": "Feature", "properties": { "name": "联庄" }, "geometry": { "type": "Point", "coordinates": [ 120.147328077406783, 30.188977367196294 ] } },
{ "type": "Feature", "properties": { "name": "水澄桥" }, "geometry": { "type": "Point", "coordinates": [ 120.147248393276811, 30.206403395796613 ] } },
{ "type": "Feature", "properties": { "name": "复兴路" }, "geometry": { "type": "Point", "coordinates": [ 120.158742230302479, 30.212635714559433 ] } },
{ "type": "Feature", "properties": { "name": "甬江路" }, "geometry": { "type": "Point", "coordinates": [ 120.18486218844788, 30.225683275282762 ] } },
{ "type": "Feature", "properties": { "name": "近江" }, "geometry": { "type": "Point", "coordinates": [ 120.193284808714083, 30.233201080591144 ] } },
{ "type": "Feature", "properties": { "name": "城星路" }, "geometry": { "type": "Point", "coordinates": [ 120.202410424122718, 30.242066411784055 ] } },
{ "type": "Feature", "properties": { "name": "市民中心" }, "geometry": { "type": "Point", "coordinates": [ 120.206679113692161, 30.247237874737969 ] } },
{ "type": "Feature", "properties": { "name": "江锦路" }, "geometry": { "type": "Point", "coordinates": [ 120.211043447266547, 30.252160961818127 ] } },
{ "type": "Feature", "properties": { "name": "钱江路" }, "geometry": { "type": "Point", "coordinates": [ 120.208857133892309, 30.258408775882732 ] } },
{ "type": "Feature", "properties": { "name": "景芳" }, "geometry": { "type": "Point", "coordinates": [ 120.203164169135604, 30.267325418586868 ] } },
{ "type": "Feature", "properties": { "name": "新塘" }, "geometry": { "type": "Point", "coordinates": [ 120.202842475561042, 30.278432920392774 ] } },
{ "type": "Feature", "properties": { "name": "新风" }, "geometry": { "type": "Point", "coordinates": [ 120.203535219945891, 30.289664746855042 ] } },
{ "type": "Feature", "properties": { "name": "火车东站" }, "geometry": { "type": "Point", "coordinates": [ 120.208695851614706, 30.293886149509902 ] } },
{ "type": "Feature", "properties": { "name": "彭埠" }, "geometry": { "type": "Point", "coordinates": [ 120.219149109577074, 30.296503393328727 ] } },
{ "type": "Feature", "properties": { "name": "明石路" }, "geometry": { "type": "Point", "coordinates": [ 120.222914055831978, 30.306013600351559 ] } },
{ "type": "Feature", "properties": { "name": "黎明" }, "geometry": { "type": "Point", "coordinates": [ 120.219097270521473, 30.31768180755509 ] } },
{ "type": "Feature", "properties": { "name": "笕桥老街" }, "geometry": { "type": "Point", "coordinates": [ 120.215129940105214, 30.325439800404695 ] } },
{ "type": "Feature", "properties": { "name": "华中南路" }, "geometry": { "type": "Point", "coordinates": [ 120.19549595970183, 30.326382323912991 ] } },
{ "type": "Feature", "properties": { "name": "皋亭坝" }, "geometry": { "type": "Point", "coordinates": [ 120.167548459708627, 30.332760747221101 ] } },
{ "type": "Feature", "properties": { "name": "桃源街" }, "geometry": { "type": "Point", "coordinates": [ 120.173914513406643, 30.34385306853671 ] } },
{ "type": "Feature", "properties": { "name": "吴家角港" }, "geometry": { "type": "Point", "coordinates": [ 120.164646048734525, 30.353431203986105 ] } },
{ "type": "Feature", "properties": { "name": "独城生态公园" }, "geometry": { "type": "Point", "coordinates": [ 120.156704919268478, 30.359438453232652 ] } },
{ "type": "Feature", "properties": { "name": "平安桥" }, "geometry": { "type": "Point", "coordinates": [ 120.139075070630071, 30.359488030093097 ] } },
{ "type": "Feature", "properties": { "name": "储运路" }, "geometry": { "type": "Point", "coordinates": [ 120.123476289805367, 30.356157052504106 ] } },
{ "type": "Feature", "properties": { "name": "好运街" }, "geometry": { "type": "Point", "coordinates": [ 120.09523220105784, 30.352458406768292 ] } },
{ "type": "Feature", "properties": { "name": "金家渡" }, "geometry": { "type": "Point", "coordinates": [ 120.07911323807609, 30.341369608710288 ] } },
{ "type": "Feature", "properties": { "name": "池华街" }, "geometry": { "type": "Point", "coordinates": [ 120.063688153716214, 30.329909471105623 ] } },
{ "type": "Feature", "properties": { "name": "江东二路" }, "geometry": { "type": "Point", "coordinates": [ 120.490367203318883, 30.326047892828345 ] } },
{ "type": "Feature", "properties": { "name": "启成路" }, "geometry": { "type": "Point", "coordinates": [ 120.490039883705151, 30.314396434747511 ] } },
{ "type": "Feature", "properties": { "name": "青六中路" }, "geometry": { "type": "Point", "coordinates": [ 120.487963016076321, 30.300475919869488 ] } },
{ "type": "Feature", "properties": { "name": "塘新线" }, "geometry": { "type": "Point", "coordinates": [ 120.485937342047279, 30.286911396695153 ] } },
{ "type": "Feature", "properties": { "name": "义蓬" }, "geometry": { "type": "Point", "coordinates": [ 120.482836370090396, 30.276290331675277 ] } },
{ "type": "Feature", "properties": { "name": "新镇路" }, "geometry": { "type": "Point", "coordinates": [ 120.479805158800133, 30.260798913884607 ] } },
{ "type": "Feature", "properties": { "name": "新港" }, "geometry": { "type": "Point", "coordinates": [ 120.40383369790581, 30.221509787882002 ] } },
{ "type": "Feature", "properties": { "name": "坎山" }, "geometry": { "type": "Point", "coordinates": [ 120.3905114663239, 30.200057304902067 ] } },
{ "type": "Feature", "properties": { "name": "盈中" }, "geometry": { "type": "Point", "coordinates": [ 120.358456590301884, 30.200016824719128 ] } },
{ "type": "Feature", "properties": { "name": "合欢路" }, "geometry": { "type": "Point", "coordinates": [ 120.339099355280609, 30.200438852421073 ] } },
{ "type": "Feature", "properties": { "name": "新街" }, "geometry": { "type": "Point", "coordinates": [ 120.326388515899964, 30.201726664414501 ] } },
{ "type": "Feature", "properties": { "name": "新汉路" }, "geometry": { "type": "Point", "coordinates": [ 120.302014144405817, 30.205387891787236 ] } },
{ "type": "Feature", "properties": { "name": "新兴路" }, "geometry": { "type": "Point", "coordinates": [ 120.290706376758806, 30.207229229893112 ] } },
{ "type": "Feature", "properties": { "name": "建设三路" }, "geometry": { "type": "Point", "coordinates": [ 120.262899114548233, 30.206973201121489 ] } },
{ "type": "Feature", "properties": { "name": "明星路" }, "geometry": { "type": "Point", "coordinates": [ 120.244258049577596, 30.207176089178695 ] } },
{ "type": "Feature", "properties": { "name": "兴议" }, "geometry": { "type": "Point", "coordinates": [ 120.234108117221751, 30.214590391455776 ] } },
{ "type": "Feature", "properties": { "name": "市民中心" }, "geometry": { "type": "Point", "coordinates": [ 120.20712231675563, 30.244984625626838 ] } },
{ "type": "Feature", "properties": { "name": "莫邪塘" }, "geometry": { "type": "Point", "coordinates": [ 120.182445628831559, 30.245709592879177 ] } },
{ "type": "Feature", "properties": { "name": "吴山广场" }, "geometry": { "type": "Point", "coordinates": [ 120.158576273526336, 30.242162507867118 ] } },
{ "type": "Feature", "properties": { "name": "良渚" }, "geometry": { "type": "Point", "coordinates": [ 120.036866279143155, 30.36132074032783 ] } },
{ "type": "Feature", "properties": { "name": "杜甫村" }, "geometry": { "type": "Point", "coordinates": [ 120.051738601643521, 30.361330561690941 ] } },
{ "type": "Feature", "properties": { "name": "白洋" }, "geometry": { "type": "Point", "coordinates": [ 120.068081791071137, 30.353429570035935 ] } },
{ "type": "Feature", "properties": { "name": "墩祥街" }, "geometry": { "type": "Point", "coordinates": [ 120.082792737161498, 30.333932632167937 ] } },
{ "type": "Feature", "properties": { "name": "三墩" }, "geometry": { "type": "Point", "coordinates": [ 120.088195259760852, 30.322298313171384 ] } },
{ "type": "Feature", "properties": { "name": "虾龙圩" }, "geometry": { "type": "Point", "coordinates": [ 120.091567483697972, 30.311853115850184 ] } },
{ "type": "Feature", "properties": { "name": "文新" }, "geometry": { "type": "Point", "coordinates": [ 120.093380708390512, 30.291519388428185 ] } },
{ "type": "Feature", "properties": { "name": "丰潭路" }, "geometry": { "type": "Point", "coordinates": [ 120.104830461826552, 30.28418292300876 ] } },
{ "type": "Feature", "properties": { "name": "古翠路" }, "geometry": { "type": "Point", "coordinates": [ 120.113132759655215, 30.284469238240963 ] } },
{ "type": "Feature", "properties": { "name": "下宁桥" }, "geometry": { "type": "Point", "coordinates": [ 120.135391683161302, 30.285628176213123 ] } },
{ "type": "Feature", "properties": { "name": "沈塘桥" }, "geometry": { "type": "Point", "coordinates": [ 120.145514139340136, 30.282465693637072 ] } },
{ "type": "Feature", "properties": { "name": "武林门" }, "geometry": { "type": "Point", "coordinates": [ 120.150671658009458, 30.27199766910196 ] } },
{ "type": "Feature", "properties": { "name": "凤起路" }, "geometry": { "type": "Point", "coordinates": [ 120.158216204827511, 30.2661228973904 ] } },
{ "type": "Feature", "properties": { "name": "中河北路" }, "geometry": { "type": "Point", "coordinates": [ 120.167793684634859, 30.266957737486692 ] } },
{ "type": "Feature", "properties": { "name": "庆菱路" }, "geometry": { "type": "Point", "coordinates": [ 120.188495543480258, 30.260013046709336 ] } },
{ "type": "Feature", "properties": { "name": "庆春广场" }, "geometry": { "type": "Point", "coordinates": [ 120.200197486409351, 30.260020778752448 ] } },
{ "type": "Feature", "properties": { "name": "钱江世纪城" }, "geometry": { "type": "Point", "coordinates": [ 120.23966100630237, 30.243010267696885 ] } },
{ "type": "Feature", "properties": { "name": "盈丰路" }, "geometry": { "type": "Point", "coordinates": [ 120.248030078510624, 30.23945294306883 ] } },
{ "type": "Feature", "properties": { "name": "飞虹路" }, "geometry": { "type": "Point", "coordinates": [ 120.258861718556261, 30.233407978753494 ] } },
{ "type": "Feature", "properties": { "name": "振宁路" }, "geometry": { "type": "Point", "coordinates": [ 120.264749913033143, 30.220145172657954 ] } },
{ "type": "Feature", "properties": { "name": "建设三路" }, "geometry": { "type": "Point", "coordinates": [ 120.26378807364415, 30.206963600333371 ] } },
{ "type": "Feature", "properties": { "name": "建设一路" }, "geometry": { "type": "Point", "coordinates": [ 120.262074979472786, 30.196499258798884 ] } },
{ "type": "Feature", "properties": { "name": "杭发厂" }, "geometry": { "type": "Point", "coordinates": [ 120.262743888273718, 30.173072808391638 ] } },
{ "type": "Feature", "properties": { "name": "人民路" }, "geometry": { "type": "Point", "coordinates": [ 120.263041814191567, 30.161630001075476 ] } },
{ "type": "Feature", "properties": { "name": "潘水" }, "geometry": { "type": "Point", "coordinates": [ 120.263184705730012, 30.150640230365568 ] } },
{ "type": "Feature", "properties": { "name": "曹家桥" }, "geometry": { "type": "Point", "coordinates": [ 120.263408810099506, 30.136978422168713 ] } },
{ "type": "Feature", "properties": { "name": "朝阳" }, "geometry": { "type": "Point", "coordinates": [ 120.263770792735031, 30.124673431949734 ] } },
{ "type": "Feature", "properties": { "name": "九州街" }, "geometry": { "type": "Point", "coordinates": [ 119.691079328062159, 30.204569309765287 ] } },
{ "type": "Feature", "properties": { "name": "临安广场" }, "geometry": { "type": "Point", "coordinates": [ 119.701559461128255, 30.230059177371334 ] } },
{ "type": "Feature", "properties": { "name": "农林大学" }, "geometry": { "type": "Point", "coordinates": [ 119.733430993537866, 30.247016268345703 ] } },
{ "type": "Feature", "properties": { "name": "青山湖" }, "geometry": { "type": "Point", "coordinates": [ 119.750776721928773, 30.258257160441133 ] } },
{ "type": "Feature", "properties": { "name": "八百里" }, "geometry": { "type": "Point", "coordinates": [ 119.771738740099067, 30.263465938977316 ] } },
{ "type": "Feature", "properties": { "name": "青山湖科技城" }, "geometry": { "type": "Point", "coordinates": [ 119.820400728968806, 30.259571074332793 ] } },
{ "type": "Feature", "properties": { "name": "南峰" }, "geometry": { "type": "Point", "coordinates": [ 119.873728472709502, 30.252412774810217 ] } },
{ "type": "Feature", "properties": { "name": "南湖" }, "geometry": { "type": "Point", "coordinates": [ 119.895047294728656, 30.249422307934886 ] } },
{ "type": "Feature", "properties": { "name": "中泰" }, "geometry": { "type": "Point", "coordinates": [ 119.924898279379462, 30.245661522181564 ] } },
{ "type": "Feature", "properties": { "name": "禹航路" }, "geometry": { "type": "Point", "coordinates": [ 119.950974835444555, 30.251336863230545 ] } },
{ "type": "Feature", "properties": { "name": "凤新路" }, "geometry": { "type": "Point", "coordinates": [ 119.96423713929768, 30.262682238577863 ] } },
{ "type": "Feature", "properties": { "name": "浙大国际校区" }, "geometry": { "type": "Point", "coordinates": [ 120.712530526831941, 30.51498092795779 ] } },
{ "type": "Feature", "properties": { "name": "海昌路" }, "geometry": { "type": "Point", "coordinates": [ 120.687825033097283, 30.51367251419957 ] } },
{ "type": "Feature", "properties": { "name": "皮革城" }, "geometry": { "type": "Point", "coordinates": [ 120.660089750035311, 30.508596179356548 ] } },
{ "type": "Feature", "properties": { "name": "斜桥" }, "geometry": { "type": "Point", "coordinates": [ 120.612921397600317, 30.490301153433926 ] } },
{ "type": "Feature", "properties": { "name": "桐九公路" }, "geometry": { "type": "Point", "coordinates": [ 120.583327868921344, 30.486076005310842 ] } },
{ "type": "Feature", "properties": { "name": "盐官" }, "geometry": { "type": "Point", "coordinates": [ 120.536148375323336, 30.465511666508803 ] } },
{ "type": "Feature", "properties": { "name": "周王庙" }, "geometry": { "type": "Point", "coordinates": [ 120.500746075816835, 30.451900889989204 ] } },
{ "type": "Feature", "properties": { "name": "长安东" }, "geometry": { "type": "Point", "coordinates": [ 120.455277775285481, 30.445655947219919 ] } },
{ "type": "Feature", "properties": { "name": "长安(东方学院)" }, "geometry": { "type": "Point", "coordinates": [ 120.43380277198554, 30.437402227800465 ] } },
{ "type": "Feature", "properties": { "name": "海宁高铁西站" }, "geometry": { "type": "Point", "coordinates": [ 120.386268826578984, 30.441843130613993 ] } },
{ "type": "Feature", "properties": { "name": "许村" }, "geometry": { "type": "Point", "coordinates": [ 120.351015432365031, 30.412873947559934 ] } },
{ "type": "Feature", "properties": { "name": "临平南高铁站" }, "geometry": { "type": "Point", "coordinates": [ 120.292216140008023, 30.38503058401739 ] } },
{ "type": "Feature", "properties": { "name": "湘湖" }, "geometry": { "type": "Point", "coordinates": [ 120.229907167171206, 30.170040350471165 ] } },
{ "type": "Feature", "properties": { "name": "滨康路" }, "geometry": { "type": "Point", "coordinates": [ 120.226512769198166, 30.186316585607173 ] } },
{ "type": "Feature", "properties": { "name": "西兴" }, "geometry": { "type": "Point", "coordinates": [ 120.215919669563974, 30.189738222456999 ] } },
{ "type": "Feature", "properties": { "name": "滨和路" }, "geometry": { "type": "Point", "coordinates": [ 120.213035797320359, 30.201989507969913 ] } },
{ "type": "Feature", "properties": { "name": "近江" }, "geometry": { "type": "Point", "coordinates": [ 120.192890726203771, 30.233534416052819 ] } },
{ "type": "Feature", "properties": { "name": "婺江路" }, "geometry": { "type": "Point", "coordinates": [ 120.186515737000533, 30.239218258821548 ] } },
{ "type": "Feature", "properties": { "name": "定安路" }, "geometry": { "type": "Point", "coordinates": [ 120.163096203860732, 30.248308469684627 ] } },
{ "type": "Feature", "properties": { "name": "龙翔桥" }, "geometry": { "type": "Point", "coordinates": [ 120.159385433327429, 30.256988850017546 ] } },
{ "type": "Feature", "properties": { "name": "凤起路" }, "geometry": { "type": "Point", "coordinates": [ 120.159077938240884, 30.263963684111214 ] } },
{ "type": "Feature", "properties": { "name": "闸弄口" }, "geometry": { "type": "Point", "coordinates": [ 120.187764286737803, 30.286859256803638 ] } },
{ "type": "Feature", "properties": { "name": "七堡" }, "geometry": { "type": "Point", "coordinates": [ 120.236578850512359, 30.302450838528745 ] } },
{ "type": "Feature", "properties": { "name": "九和路" }, "geometry": { "type": "Point", "coordinates": [ 120.248307612727046, 30.308248352440017 ] } },
{ "type": "Feature", "properties": { "name": "九堡" }, "geometry": { "type": "Point", "coordinates": [ 120.261959668414107, 30.310178989945538 ] } },
{ "type": "Feature", "properties": { "name": "下沙西" }, "geometry": { "type": "Point", "coordinates": [ 120.308024102986565, 30.312301004332763 ] } },
{ "type": "Feature", "properties": { "name": "金沙湖" }, "geometry": { "type": "Point", "coordinates": [ 120.321190474410727, 30.311604340248511 ] } },
{ "type": "Feature", "properties": { "name": "高沙路" }, "geometry": { "type": "Point", "coordinates": [ 120.330863499102946, 30.3117598288054 ] } },
{ "type": "Feature", "properties": { "name": "文泽路" }, "geometry": { "type": "Point", "coordinates": [ 120.345489035550457, 30.312372049696034 ] } },
{ "type": "Feature", "properties": { "name": "云水" }, "geometry": { "type": "Point", "coordinates": [ 120.37719200713741, 30.305164493436003 ] } },
{ "type": "Feature", "properties": { "name": "下沙江滨" }, "geometry": { "type": "Point", "coordinates": [ 120.377131375860642, 30.289041356909532 ] } },
{ "type": "Feature", "properties": { "name": "杭州大会展中心" }, "geometry": { "type": "Point", "coordinates": [ 120.407380728439449, 30.273454002967178 ] } },
{ "type": "Feature", "properties": { "name": "港城大道" }, "geometry": { "type": "Point", "coordinates": [ 120.421525407583985, 30.272954592374756 ] } },
{ "type": "Feature", "properties": { "name": "南阳" }, "geometry": { "type": "Point", "coordinates": [ 120.431743763422233, 30.272398739463142 ] } },
{ "type": "Feature", "properties": { "name": "向阳路" }, "geometry": { "type": "Point", "coordinates": [ 120.437968341591016, 30.26244575438886 ] } }
]
}
